[
  {
    "id": "so1102",
    "name": "Baki",
    "district": "Baki",
    "district_pcode": "SO1102",
    "region": "Awdal",
    "region_pcode": "SO11",
    "country": "Somalia",
    "latitude": 10.19423239,
    "longitude": 43.52042795,
    "area_sqkm": 3421.07454509,
    "population": null,
    "livestock": null,
    "water_sources": [],
    "temperature_c": null
  },
  {
    "id": "so1101",
    "name": "Borama",
    "district": "Borama",
    "district_pcode": "SO1101",
    "region": "Awdal",
    "region_pcode": "SO11",
    "country": "Somalia",
    "latitude": 10.09640503,
    "longitude": 43.18074793,
    "area_sqkm": 3086.99505324,
    "population": null,
    "livestock": null,
    "water_sources": [],
    "temperature_c": null
  },
  {
    "id": "so1103",
    "name": "Lughaye",
    "district": "Lughaye",
    "district_pcode": "SO1103",
    "region": "Awdal",
    "region_pcode": "SO11",
    "country": "Somalia",
    "latitude": 10.65553331,
    "longitude": 43.57543663,
    "area_sqkm": 3337.33787467,
    "population": null,
    "livestock": null,
    "water_sources": [],
    "temperature_c": null
  },
  {
    "id": "so1104",
    "name": "Zeylac",
    "district": "Zeylac",
    "district_pcode": "SO1104",
    "region": "Awdal",
    "region_pcode": "SO11",
    "country": "Somalia",
    "latitude": 10.90276527,
    "longitude": 43.26187596,
    "area_sqkm": 6039.34819175,
    "population": null,
    "livestock": null,
    "water_sources": [],
    "temperature_c": null
  },
  {
    "id": "so2502",
    "name": "Ceel Barde",
    "district": "Ceel Barde",
    "district_pcode": "SO2502",
    "region": "Bakool",
    "region_pcode": "SO25",
    "country": "Somalia",
    "latitude": 4.69021601,
    "longitude": 43.92904626,
    "area_sqkm": 7665.58736124,
    "population": null,
    "livestock": null,
    "water_sources": [],
    "temperature_c": null
  },
  {
    "id": "so2505",
    "name": "Rab Dhuure",
    "district": "Rab Dhuure",
    "district_pcode": "SO2505",
    "region": "Bakool",
    "region_pcode": "SO25",
    "country": "Somalia",
    "latitude": 4.22350194,
    "longitude": 43.21217369,
    "area_sqkm": 3301.81581327,
    "population": null,
    "livestock": null,
    "water_sources": [],
    "temperature_c": null
  },
  {
    "id": "so2503",
    "name": "Tayeeglow",
    "district": "Tayeeglow",
    "district_pcode": "SO2503",
    "region": "Bakool",
    "region_pcode": "SO25",
    "country": "Somalia",
    "latitude": 3.81189881,
    "longitude": 44.54136677,
    "area_sqkm": 6595.137437,
    "population": null,
    "livestock": null,
    "water_sources": [],
    "temperature_c": null
  },
  {
    "id": "so2504",
    "name": "Waajid",
    "district": "Waajid",
    "district_pcode": "SO2504",
    "region": "Bakool",
    "region_pcode": "SO25",
    "country": "Somalia",
    "latitude": 3.804685,
    "longitude": 43.43071401,
    "area_sqkm": 2803.4187071,
    "population": null,
    "livestock": null,
    "water_sources": [],
    "temperature_c": null
  },
  {
    "id": "so2501",
    "name": "Xudur",
    "district": "Xudur",
    "district_pcode": "SO2501",
    "region": "Bakool",
    "region_pcode": "SO25",
    "country": "Somalia",
    "latitude": 4.0366221,
    "longitude": 43.96843838,
    "area_sqkm": 5431.65371707,
    "population": null,
    "livestock": null,
    "water_sources": [],
    "temperature_c": null
  },
  {
    "id": "so2201",
    "name": "Bondhere",
    "district": "Bondhere",
    "district_pcode": "SO2201",
    "region": "Banadir",
    "region_pcode": "SO22",
    "country": "Somalia",
    "latitude": 2.045235,
    "longitude": 45.34052929,
    "area_sqkm": 1.40069913,
    "population": null,
    "livestock": null,
    "water_sources": [],
    "temperature_c": null
  },
  {
    "id": "so2202",
    "name": "Cabdulasis",
    "district": "Cabdulasis",
    "district_pcode": "SO2202",
    "region": "Banadir",
    "region_pcode": "SO22",
    "country": "Somalia",
    "latitude": 2.03955,
    "longitude": 45.35749592,
    "area_sqkm": 0.9701497,
    "population": null,
    "livestock": null,
    "water_sources": [],
    "temperature_c": null
  },
  {
    "id": "so2203",
    "name": "Daynile",
    "district": "Daynile",
    "district_pcode": "SO2203",
    "region": "Banadir",
    "region_pcode": "SO22",
    "country": "Somalia",
    "latitude": 2.07344249,
    "longitude": 45.2784482,
    "area_sqkm": 46.93348812,
    "population": null,
    "livestock": null,
    "water_sources": [],
    "temperature_c": null
  },
  {
    "id": "so2204",
    "name": "Dharkenley",
    "district": "Dharkenley",
    "district_pcode": "SO2204",
    "region": "Banadir",
    "region_pcode": "SO22",
    "country": "Somalia",
    "latitude": 2.00327062,
    "longitude": 45.2462726,
    "area_sqkm": 23.48165838,
    "population": null,
    "livestock": null,
    "water_sources": [],
    "temperature_c": null
  },
  {
    "id": "so2205",
    "name": "Hamar Jabjab",
    "district": "Hamar Jabjab",
    "district_pcode": "SO2205",
    "region": "Banadir",
    "region_pcode": "SO22",
    "country": "Somalia",
    "latitude": 2.02926633,
    "longitude": 45.33019551,
    "area_sqkm": 1.85170669,
    "population": null,
    "livestock": null,
    "water_sources": [],
    "temperature_c": null
  },
  {
    "id": "so2206",
    "name": "Hamar Weyne",
    "district": "Hamar Weyne",
    "district_pcode": "SO2206",
    "region": "Banadir",
    "region_pcode": "SO22",
    "country": "Somalia",
    "latitude": 2.03388362,
    "longitude": 45.33880845,
    "area_sqkm": 0.8524205,
    "population": null,
    "livestock": null,
    "water_sources": [],
    "temperature_c": null
  },
  {
    "id": "so2207",
    "name": "Hawl Wadaag",
    "district": "Hawl Wadaag",
    "district_pcode": "SO2207",
    "region": "Banadir",
    "region_pcode": "SO22",
    "country": "Somalia",
    "latitude": 2.04832338,
    "longitude": 45.3193717,
    "area_sqkm": 3.88540001,
    "population": null,
    "livestock": null,
    "water_sources": [],
    "temperature_c": null
  },
  {
    "id": "so2208",
    "name": "Heliwa",
    "district": "Heliwa",
    "district_pcode": "SO2208",
    "region": "Banadir",
    "region_pcode": "SO22",
    "country": "Somalia",
    "latitude": 2.07962306,
    "longitude": 45.38357004,
    "area_sqkm": 21.87921987,
    "population": null,
    "livestock": null,
    "water_sources": [],
    "temperature_c": null
  },
  {
    "id": "so2209",
    "name": "Hodan",
    "district": "Hodan",
    "district_pcode": "SO2209",
    "region": "Banadir",
    "region_pcode": "SO22",
    "country": "Somalia",
    "latitude": 2.04556953,
    "longitude": 45.29894789,
    "area_sqkm": 6.38753668,
    "population": null,
    "livestock": null,
    "water_sources": [],
    "temperature_c": null
  },
  {
    "id": "so2210",
    "name": "Kahda",
    "district": "Kahda",
    "district_pcode": "SO2210",
    "region": "Banadir",
    "region_pcode": "SO22",
    "country": "Somalia",
    "latitude": 2.04710787,
    "longitude": 45.24958836,
    "area_sqkm": 27.60654308,
    "population": null,
    "livestock": null,
    "water_sources": [],
    "temperature_c": null
  },
  {
    "id": "so2211",
    "name": "Karaan",
    "district": "Karaan",
    "district_pcode": "SO2211",
    "region": "Banadir",
    "region_pcode": "SO22",
    "country": "Somalia",
    "latitude": 2.06708727,
    "longitude": 45.39958623,
    "area_sqkm": 15.31045463,
    "population": null,
    "livestock": null,
    "water_sources": [],
    "temperature_c": null
  },
  {
    "id": "so2212",
    "name": "Shangaani",
    "district": "Shangaani",
    "district_pcode": "SO2212",
    "region": "Banadir",
    "region_pcode": "SO22",
    "country": "Somalia",
    "latitude": 2.03744,
    "longitude": 45.34728668,
    "area_sqkm": 0.54814446,
    "population": null,
    "livestock": null,
    "water_sources": [],
    "temperature_c": null
  },
  {
    "id": "so2213",
    "name": "Shibis",
    "district": "Shibis",
    "district_pcode": "SO2213",
    "region": "Banadir",
    "region_pcode": "SO22",
    "country": "Somalia",
    "latitude": 2.04697608,
    "longitude": 45.35337195,
    "area_sqkm": 2.08561831,
    "population": null,
    "livestock": null,
    "water_sources": [],
    "temperature_c": null
  },
  {
    "id": "unspecified",
    "name": "Unspecified",
    "district": "Unspecified",
    "district_pcode": "Unspecified",
    "region": "Banadir",
    "region_pcode": "SO22",
    "country": "Somalia",
    "latitude": 2.12719727,
    "longitude": 45.44227136,
    "area_sqkm": 142.63147523,
    "population": null,
    "livestock": null,
    "water_sources": [],
    "temperature_c": null
  },
  {
    "id": "so2214",
    "name": "Waaberi",
    "district": "Waaberi",
    "district_pcode": "SO2214",
    "region": "Banadir",
    "region_pcode": "SO22",
    "country": "Somalia",
    "latitude": 2.01881545,
    "longitude": 45.3129911,
    "area_sqkm": 5.91073474,
    "population": null,
    "livestock": null,
    "water_sources": [],
    "temperature_c": null
  },
  {
    "id": "so2215",
    "name": "Wadajir (Medina)",
    "district": "Wadajir (Medina)",
    "district_pcode": "SO2215",
    "region": "Banadir",
    "region_pcode": "SO22",
    "country": "Somalia",
    "latitude": 2.01532,
    "longitude": 45.28572268,
    "area_sqkm": 14.56504306,
    "population": null,
    "livestock": null,
    "water_sources": [],
    "temperature_c": null
  },
  {
    "id": "so2216",
    "name": "Wardhigley",
    "district": "Wardhigley",
    "district_pcode": "SO2216",
    "region": "Banadir",
    "region_pcode": "SO22",
    "country": "Somalia",
    "latitude": 2.05319494,
    "longitude": 45.33162016,
    "area_sqkm": 5.25333427,
    "population": null,
    "livestock": null,
    "water_sources": [],
    "temperature_c": null
  },
  {
    "id": "so2217",
    "name": "Yaaqshid",
    "district": "Yaaqshid",
    "district_pcode": "SO2217",
    "region": "Banadir",
    "region_pcode": "SO22",
    "country": "Somalia",
    "latitude": 2.06896444,
    "longitude": 45.34626698,
    "area_sqkm": 5.79790601,
    "population": null,
    "livestock": null,
    "water_sources": [],
    "temperature_c": null
  },
  {
    "id": "so1602",
    "name": "Bandarbeyla",
    "district": "Bandarbeyla",
    "district_pcode": "SO1602",
    "region": "Bari",
    "region_pcode": "SO16",
    "country": "Somalia",
    "latitude": 9.1271081,
    "longitude": 50.28856949,
    "area_sqkm": 11290.15031631,
    "population": null,
    "livestock": null,
    "water_sources": [],
    "temperature_c": null
  },
  {
    "id": "so1601",
    "name": "Bossaso",
    "district": "Bossaso",
    "district_pcode": "SO1601",
    "region": "Bari",
    "region_pcode": "SO16",
    "country": "Somalia",
    "latitude": 10.96716698,
    "longitude": 49.42761938,
    "area_sqkm": 7878.93755388,
    "population": null,
    "livestock": null,
    "water_sources": [],
    "temperature_c": null
  },
  {
    "id": "so1603",
    "name": "Caluula",
    "district": "Caluula",
    "district_pcode": "SO1603",
    "region": "Bari",
    "region_pcode": "SO16",
    "country": "Somalia",
    "latitude": 11.69170141,
    "longitude": 50.85502539,
    "area_sqkm": 4529.36481391,
    "population": null,
    "livestock": null,
    "water_sources": [],
    "temperature_c": null
  },
  {
    "id": "so1604",
    "name": "Iskushuban",
    "district": "Iskushuban",
    "district_pcode": "SO1604",
    "region": "Bari",
    "region_pcode": "SO16",
    "country": "Somalia",
    "latitude": 10.65594407,
    "longitude": 50.7896225,
    "area_sqkm": 18349.70356827,
    "population": null,
    "livestock": null,
    "water_sources": [],
    "temperature_c": null
  },
  {
    "id": "so1605",
    "name": "Qandala",
    "district": "Qandala",
    "district_pcode": "SO1605",
    "region": "Bari",
    "region_pcode": "SO16",
    "country": "Somalia",
    "latitude": 11.08708111,
    "longitude": 50.09138682,
    "area_sqkm": 7397.29063739,
    "population": null,
    "livestock": null,
    "water_sources": [],
    "temperature_c": null
  },
  {
    "id": "so1606",
    "name": "Qardho",
    "district": "Qardho",
    "district_pcode": "SO1606",
    "region": "Bari",
    "region_pcode": "SO16",
    "country": "Somalia",
    "latitude": 9.41529953,
    "longitude": 49.56791222,
    "area_sqkm": 18631.58181673,
    "population": null,
    "livestock": null,
    "water_sources": [],
    "temperature_c": null
  },
  {
    "id": "so2401",
    "name": "Baydhaba",
    "district": "Baydhaba",
    "district_pcode": "SO2401",
    "region": "Bay",
    "region_pcode": "SO24",
    "country": "Somalia",
    "latitude": 3.21673307,
    "longitude": 43.61984982,
    "area_sqkm": 12909.94278877,
    "population": null,
    "livestock": null,
    "water_sources": [],
    "temperature_c": null
  },
  {
    "id": "so2402",
    "name": "Buur Hakaba",
    "district": "Buur Hakaba",
    "district_pcode": "SO2402",
    "region": "Bay",
    "region_pcode": "SO24",
    "country": "Somalia",
    "latitude": 2.50165391,
    "longitude": 44.02556238,
    "area_sqkm": 18026.02429413,
    "population": null,
    "livestock": null,
    "water_sources": [],
    "temperature_c": null
  },
  {
    "id": "so2403",
    "name": "Diinsoor",
    "district": "Diinsoor",
    "district_pcode": "SO2403",
    "region": "Bay",
    "region_pcode": "SO24",
    "country": "Somalia",
    "latitude": 2.03464817,
    "longitude": 42.80906404,
    "area_sqkm": 9729.956161,
    "population": null,
    "livestock": null,
    "water_sources": [],
    "temperature_c": null
  },
  {
    "id": "so2404",
    "name": "Qansax Dheere",
    "district": "Qansax Dheere",
    "district_pcode": "SO2404",
    "region": "Bay",
    "region_pcode": "SO24",
    "country": "Somalia",
    "latitude": 2.81169213,
    "longitude": 42.83731407,
    "area_sqkm": 3265.60250107,
    "population": null,
    "livestock": null,
    "water_sources": [],
    "temperature_c": null
  },
  {
    "id": "so1902",
    "name": "Cabudwaaq",
    "district": "Cabudwaaq",
    "district_pcode": "SO1902",
    "region": "Galgaduud",
    "region_pcode": "SO19",
    "country": "Somalia",
    "latitude": 5.84708358,
    "longitude": 46.14369133,
    "area_sqkm": 6408.18759592,
    "population": null,
    "livestock": null,
    "water_sources": [],
    "temperature_c": null
  },
  {
    "id": "so1903",
    "name": "Cadaado",
    "district": "Cadaado",
    "district_pcode": "SO1903",
    "region": "Galgaduud",
    "region_pcode": "SO19",
    "country": "Somalia",
    "latitude": 6.15692726,
    "longitude": 47.0756365,
    "area_sqkm": 6449.58123091,
    "population": null,
    "livestock": null,
    "water_sources": [],
    "temperature_c": null
  },
  {
    "id": "so1904",
    "name": "Ceel Buur",
    "district": "Ceel Buur",
    "district_pcode": "SO1904",
    "region": "Galgaduud",
    "region_pcode": "SO19",
    "country": "Somalia",
    "latitude": 4.68205844,
    "longitude": 46.82490038,
    "area_sqkm": 13354.51580305,
    "population": null,
    "livestock": null,
    "water_sources": [],
    "temperature_c": null
  },
  {
    "id": "so1905",
    "name": "Ceel Dheer",
    "district": "Ceel Dheer",
    "district_pcode": "SO1905",
    "region": "Galgaduud",
    "region_pcode": "SO19",
    "country": "Somalia",
    "latitude": 3.98375809,
    "longitude": 46.9596925,
    "area_sqkm": 10366.5226541,
    "population": null,
    "livestock": null,
    "water_sources": [],
    "temperature_c": null
  },
  {
    "id": "so1901",
    "name": "Dhuusamarreeb",
    "district": "Dhuusamarreeb",
    "district_pcode": "SO1901",
    "region": "Galgaduud",
    "region_pcode": "SO19",
    "country": "Somalia",
    "latitude": 5.49551781,
    "longitude": 46.7687496,
    "area_sqkm": 12700.55163707,
    "population": null,
    "livestock": null,
    "water_sources": [],
    "temperature_c": null
  },
  {
    "id": "so2602",
    "name": "Baardheere",
    "district": "Baardheere",
    "district_pcode": "SO2602",
    "region": "Gedo",
    "region_pcode": "SO26",
    "country": "Somalia",
    "latitude": 2.15175241,
    "longitude": 41.71573756,
    "area_sqkm": 15272.07429166,
    "population": null,
    "livestock": null,
    "water_sources": [],
    "temperature_c": null
  },
  {
    "id": "so2603",
    "name": "Belet Xaawo",
    "district": "Belet Xaawo",
    "district_pcode": "SO2603",
    "region": "Gedo",
    "region_pcode": "SO26",
    "country": "Somalia",
    "latitude": 3.40276694,
    "longitude": 41.7089009,
    "area_sqkm": 3804.76990172,
    "population": null,
    "livestock": null,
    "water_sources": [],
    "temperature_c": null
  },
  {
    "id": "so2604",
    "name": "Ceel Waaq",
    "district": "Ceel Waaq",
    "district_pcode": "SO2604",
    "region": "Gedo",
    "region_pcode": "SO26",
    "country": "Somalia",
    "latitude": 2.75904929,
    "longitude": 41.45616451,
    "area_sqkm": 7768.52566084,
    "population": null,
    "livestock": null,
    "water_sources": [],
    "temperature_c": null
  },
  {
    "id": "so2605",
    "name": "Doolow",
    "district": "Doolow",
    "district_pcode": "SO2605",
    "region": "Gedo",
    "region_pcode": "SO26",
    "country": "Somalia",
    "latitude": 3.9931821,
    "longitude": 42.11791997,
    "area_sqkm": 1619.50100646,
    "population": null,
    "livestock": null,
    "water_sources": [],
    "temperature_c": null
  },
  {
    "id": "so2601",
    "name": "Garbahaarey",
    "district": "Garbahaarey",
    "district_pcode": "SO2601",
    "region": "Gedo",
    "region_pcode": "SO26",
    "country": "Somalia",
    "latitude": 3.17131679,
    "longitude": 42.45171926,
    "area_sqkm": 8323.89227584,
    "population": null,
    "livestock": null,
    "water_sources": [],
    "temperature_c": null
  },
  {
    "id": "so2606",
    "name": "Luuq",
    "district": "Luuq",
    "district_pcode": "SO2606",
    "region": "Gedo",
    "region_pcode": "SO26",
    "country": "Somalia",
    "latitude": 3.78529535,
    "longitude": 42.61117757,
    "area_sqkm": 8267.627574,
    "population": null,
    "livestock": null,
    "water_sources": [],
    "temperature_c": null
  },
  {
    "id": "so2001",
    "name": "Belet Weyne",
    "district": "Belet Weyne",
    "district_pcode": "SO2001",
    "region": "Hiraan",
    "region_pcode": "SO20",
    "country": "Somalia",
    "latitude": 4.82990908,
    "longitude": 45.38260684,
    "area_sqkm": 14683.96516976,
    "population": null,
    "livestock": null,
    "water_sources": [],
    "temperature_c": null
  },
  {
    "id": "so2002",
    "name": "Bulo Burto",
    "district": "Bulo Burto",
    "district_pcode": "SO2002",
    "region": "Hiraan",
    "region_pcode": "SO20",
    "country": "Somalia",
    "latitude": 3.81713237,
    "longitude": 45.52533991,
    "area_sqkm": 16046.86212041,
    "population": null,
    "livestock": null,
    "water_sources": [],
    "temperature_c": null
  },
  {
    "id": "so2003",
    "name": "Jalalaqsi",
    "district": "Jalalaqsi",
    "district_pcode": "SO2003",
    "region": "Hiraan",
    "region_pcode": "SO20",
    "country": "Somalia",
    "latitude": 3.38720703,
    "longitude": 45.61100554,
    "area_sqkm": 3122.68764253,
    "population": null,
    "livestock": null,
    "water_sources": [],
    "temperature_c": null
  },
  {
    "id": "so2802",
    "name": "Afmadow",
    "district": "Afmadow",
    "district_pcode": "SO2802",
    "region": "Lower Juba",
    "region_pcode": "SO28",
    "country": "Somalia",
    "latitude": 0.5467818,
    "longitude": 41.83477493,
    "area_sqkm": 26757.44937773,
    "population": null,
    "livestock": null,
    "water_sources": [],
    "temperature_c": null
  },
  {
    "id": "so2803",
    "name": "Badhaadhe",
    "district": "Badhaadhe",
    "district_pcode": "SO2803",
    "region": "Lower Juba",
    "region_pcode": "SO28",
    "country": "Somalia",
    "latitude": -0.88988267,
    "longitude": 41.46470793,
    "area_sqkm": 9761.49384733,
    "population": null,
    "livestock": null,
    "water_sources": [],
    "temperature_c": null
  },
  {
    "id": "so2804",
    "name": "Jamaame",
    "district": "Jamaame",
    "district_pcode": "SO2804",
    "region": "Lower Juba",
    "region_pcode": "SO28",
    "country": "Somalia",
    "latitude": 0.05088829,
    "longitude": 42.73860446,
    "area_sqkm": 2148.95436955,
    "population": null,
    "livestock": null,
    "water_sources": [],
    "temperature_c": null
  },
  {
    "id": "so2801",
    "name": "Kismaayo",
    "district": "Kismaayo",
    "district_pcode": "SO2801",
    "region": "Lower Juba",
    "region_pcode": "SO28",
    "country": "Somalia",
    "latitude": -0.51418511,
    "longitude": 41.98644967,
    "area_sqkm": 9215.28324894,
    "population": null,
    "livestock": null,
    "water_sources": [],
    "temperature_c": null
  },
  {
    "id": "so2302",
    "name": "Afgooye",
    "district": "Afgooye",
    "district_pcode": "SO2302",
    "region": "Lower Shabelle",
    "region_pcode": "SO23",
    "country": "Somalia",
    "latitude": 2.31167603,
    "longitude": 45.069732,
    "area_sqkm": 3831.79031436,
    "population": null,
    "livestock": null,
    "water_sources": [],
    "temperature_c": null
  },
  {
    "id": "so2303",
    "name": "Baraawe",
    "district": "Baraawe",
    "district_pcode": "SO2303",
    "region": "Lower Shabelle",
    "region_pcode": "SO23",
    "country": "Somalia",
    "latitude": 1.09829712,
    "longitude": 43.81408974,
    "area_sqkm": 3283.60493643,
    "population": null,
    "livestock": null,
    "water_sources": [],
    "temperature_c": null
  },
  {
    "id": "so2304",
    "name": "Kurtunwaarey",
    "district": "Kurtunwaarey",
    "district_pcode": "SO2304",
    "region": "Lower Shabelle",
    "region_pcode": "SO23",
    "country": "Somalia",
    "latitude": 1.65169869,
    "longitude": 44.13640331,
    "area_sqkm": 2545.94189252,
    "population": null,
    "livestock": null,
    "water_sources": [],
    "temperature_c": null
  },
  {
    "id": "so2301",
    "name": "Marka",
    "district": "Marka",
    "district_pcode": "SO2301",
    "region": "Lower Shabelle",
    "region_pcode": "SO23",
    "country": "Somalia",
    "latitude": 1.71160889,
    "longitude": 44.66436438,
    "area_sqkm": 1033.14003298,
    "population": null,
    "livestock": null,
    "water_sources": [],
    "temperature_c": null
  },
  {
    "id": "so2305",
    "name": "Qoryooley",
    "district": "Qoryooley",
    "district_pcode": "SO2305",
    "region": "Lower Shabelle",
    "region_pcode": "SO23",
    "country": "Somalia",
    "latitude": 1.95761532,
    "longitude": 44.43791949,
    "area_sqkm": 3213.58686892,
    "population": null,
    "livestock": null,
    "water_sources": [],
    "temperature_c": null
  },
  {
    "id": "so2306",
    "name": "Sablaale",
    "district": "Sablaale",
    "district_pcode": "SO2306",
    "region": "Lower Shabelle",
    "region_pcode": "SO23",
    "country": "Somalia",
    "latitude": 1.33837081,
    "longitude": 43.52441251,
    "area_sqkm": 5991.82392702,
    "population": null,
    "livestock": null,
    "water_sources": [],
    "temperature_c": null
  },
  {
    "id": "so2307",
    "name": "Wanla Weyn",
    "district": "Wanla Weyn",
    "district_pcode": "SO2307",
    "region": "Lower Shabelle",
    "region_pcode": "SO23",
    "country": "Somalia",
    "latitude": 2.76123524,
    "longitude": 44.98574277,
    "area_sqkm": 5711.91564724,
    "population": null,
    "livestock": null,
    "water_sources": [],
    "temperature_c": null
  },
  {
    "id": "so2701",
    "name": "Bu'aale",
    "district": "Bu'aale",
    "district_pcode": "SO2701",
    "region": "Middle Juba",
    "region_pcode": "SO27",
    "country": "Somalia",
    "latitude": 1.11705931,
    "longitude": 42.85628265,
    "area_sqkm": 5489.98936409,
    "population": null,
    "livestock": null,
    "water_sources": [],
    "temperature_c": null
  },
  {
    "id": "so2702",
    "name": "Jilib",
    "district": "Jilib",
    "district_pcode": "SO2702",
    "region": "Middle Juba",
    "region_pcode": "SO27",
    "country": "Somalia",
    "latitude": 0.69708152,
    "longitude": 43.07144586,
    "area_sqkm": 5250.51645615,
    "population": null,
    "livestock": null,
    "water_sources": [],
    "temperature_c": null
  },
  {
    "id": "so2703",
    "name": "Saakow",
    "district": "Saakow",
    "district_pcode": "SO2703",
    "region": "Middle Juba",
    "region_pcode": "SO27",
    "country": "Somalia",
    "latitude": 1.60655924,
    "longitude": 42.17191131,
    "area_sqkm": 8050.48180611,
    "population": null,
    "livestock": null,
    "water_sources": [],
    "temperature_c": null
  },
  {
    "id": "so2102",
    "name": "Adan Yabaal",
    "district": "Adan Yabaal",
    "district_pcode": "SO2102",
    "region": "Middle Shabelle",
    "region_pcode": "SO21",
    "country": "Somalia",
    "latitude": 3.5120513,
    "longitude": 46.54593142,
    "area_sqkm": 3976.45973753,
    "population": null,
    "livestock": null,
    "water_sources": [],
    "temperature_c": null
  },
  {
    "id": "so2103",
    "name": "Balcad",
    "district": "Balcad",
    "district_pcode": "SO2103",
    "region": "Middle Shabelle",
    "region_pcode": "SO21",
    "country": "Somalia",
    "latitude": 2.45581055,
    "longitude": 45.68534047,
    "area_sqkm": 4226.39867309,
    "population": null,
    "livestock": null,
    "water_sources": [],
    "temperature_c": null
  },
  {
    "id": "so2104",
    "name": "Cadale",
    "district": "Cadale",
    "district_pcode": "SO2104",
    "region": "Middle Shabelle",
    "region_pcode": "SO21",
    "country": "Somalia",
    "latitude": 3.0679233,
    "longitude": 46.30984373,
    "area_sqkm": 5821.58530719,
    "population": null,
    "livestock": null,
    "water_sources": [],
    "temperature_c": null
  },
  {
    "id": "so2101",
    "name": "Jowhar",
    "district": "Jowhar",
    "district_pcode": "SO2101",
    "region": "Middle Shabelle",
    "region_pcode": "SO21",
    "country": "Somalia",
    "latitude": 2.98592068,
    "longitude": 45.555283,
    "area_sqkm": 4636.38639105,
    "population": null,
    "livestock": null,
    "water_sources": [],
    "temperature_c": null
  },
  {
    "id": "so1801",
    "name": "Gaalkacyo",
    "district": "Gaalkacyo",
    "district_pcode": "SO1801",
    "region": "Mudug",
    "region_pcode": "SO18",
    "country": "Somalia",
    "latitude": 6.92890205,
    "longitude": 47.89672675,
    "area_sqkm": 15227.3924958,
    "population": null,
    "livestock": null,
    "water_sources": [],
    "temperature_c": null
  },
  {
    "id": "so1802",
    "name": "Galdogob",
    "district": "Galdogob",
    "district_pcode": "SO1802",
    "region": "Mudug",
    "region_pcode": "SO18",
    "country": "Somalia",
    "latitude": 7.04503089,
    "longitude": 47.22355376,
    "area_sqkm": 1986.95451385,
    "population": null,
    "livestock": null,
    "water_sources": [],
    "temperature_c": null
  },
  {
    "id": "so1803",
    "name": "Hobyo",
    "district": "Hobyo",
    "district_pcode": "SO1803",
    "region": "Mudug",
    "region_pcode": "SO18",
    "country": "Somalia",
    "latitude": 5.90892148,
    "longitude": 48.16568856,
    "area_sqkm": 25450.65522085,
    "population": null,
    "livestock": null,
    "water_sources": [],
    "temperature_c": null
  },
  {
    "id": "so1804",
    "name": "Jariiban",
    "district": "Jariiban",
    "district_pcode": "SO1804",
    "region": "Mudug",
    "region_pcode": "SO18",
    "country": "Somalia",
    "latitude": 7.13902681,
    "longitude": 48.98835974,
    "area_sqkm": 10926.92938664,
    "population": null,
    "livestock": null,
    "water_sources": [],
    "temperature_c": null
  },
  {
    "id": "so1805",
    "name": "Xarardheere",
    "district": "Xarardheere",
    "district_pcode": "SO1805",
    "region": "Mudug",
    "region_pcode": "SO18",
    "country": "Somalia",
    "latitude": 4.78595256,
    "longitude": 47.84846961,
    "area_sqkm": 5124.1541413,
    "population": null,
    "livestock": null,
    "water_sources": [],
    "temperature_c": null
  },
  {
    "id": "so1702",
    "name": "Burtinle",
    "district": "Burtinle",
    "district_pcode": "SO1702",
    "region": "Nugaal",
    "region_pcode": "SO17",
    "country": "Somalia",
    "latitude": 7.86968691,
    "longitude": 48.49116333,
    "area_sqkm": 9664.85888111,
    "population": null,
    "livestock": null,
    "water_sources": [],
    "temperature_c": null
  },
  {
    "id": "so1703",
    "name": "Eyl",
    "district": "Eyl",
    "district_pcode": "SO1703",
    "region": "Nugaal",
    "region_pcode": "SO17",
    "country": "Somalia",
    "latitude": 8.03914543,
    "longitude": 49.56220097,
    "area_sqkm": 9308.60946867,
    "population": null,
    "livestock": null,
    "water_sources": [],
    "temperature_c": null
  },
  {
    "id": "so1701",
    "name": "Garoowe",
    "district": "Garoowe",
    "district_pcode": "SO1701",
    "region": "Nugaal",
    "region_pcode": "SO17",
    "country": "Somalia",
    "latitude": 8.59332767,
    "longitude": 48.82211464,
    "area_sqkm": 8594.68485812,
    "population": null,
    "livestock": null,
    "water_sources": [],
    "temperature_c": null
  },
  {
    "id": "so1502",
    "name": "Ceel Afweyn",
    "district": "Ceel Afweyn",
    "district_pcode": "SO1502",
    "region": "Sanaag",
    "region_pcode": "SO15",
    "country": "Somalia",
    "latitude": 10.13970386,
    "longitude": 46.69572893,
    "area_sqkm": 15670.87405952,
    "population": null,
    "livestock": null,
    "water_sources": [],
    "temperature_c": null
  },
  {
    "id": "so1501",
    "name": "Ceerigaabo",
    "district": "Ceerigaabo",
    "district_pcode": "SO1501",
    "region": "Sanaag",
    "region_pcode": "SO15",
    "country": "Somalia",
    "latitude": 10.33854421,
    "longitude": 47.91359232,
    "area_sqkm": 25966.56415523,
    "population": null,
    "livestock": null,
    "water_sources": [],
    "temperature_c": null
  },
  {
    "id": "so1503",
    "name": "Laasqoray",
    "district": "Laasqoray",
    "district_pcode": "SO1503",
    "region": "Sanaag",
    "region_pcode": "SO15",
    "country": "Somalia",
    "latitude": 10.46154385,
    "longitude": 48.82380357,
    "area_sqkm": 12173.08071436,
    "population": null,
    "livestock": null,
    "water_sources": [],
    "temperature_c": null
  },
  {
    "id": "so1402",
    "name": "Caynabo",
    "district": "Caynabo",
    "district_pcode": "SO1402",
    "region": "Sool",
    "region_pcode": "SO14",
    "country": "Somalia",
    "latitude": 9.38430748,
    "longitude": 46.53587295,
    "area_sqkm": 8073.41015561,
    "population": null,
    "livestock": null,
    "water_sources": [],
    "temperature_c": null
  },
  {
    "id": "so1401",
    "name": "Laas Caanood",
    "district": "Laas Caanood",
    "district_pcode": "SO1401",
    "region": "Sool",
    "region_pcode": "SO14",
    "country": "Somalia",
    "latitude": 8.43456583,
    "longitude": 47.65733026,
    "area_sqkm": 11564.58683131,
    "population": null,
    "livestock": null,
    "water_sources": [],
    "temperature_c": null
  },
  {
    "id": "so1403",
    "name": "Taleex",
    "district": "Taleex",
    "district_pcode": "SO1403",
    "region": "Sool",
    "region_pcode": "SO14",
    "country": "Somalia",
    "latitude": 9.16944907,
    "longitude": 48.57076799,
    "area_sqkm": 8589.16628507,
    "population": null,
    "livestock": null,
    "water_sources": [],
    "temperature_c": null
  },
  {
    "id": "so1404",
    "name": "Xudun",
    "district": "Xudun",
    "district_pcode": "SO1404",
    "region": "Sool",
    "region_pcode": "SO14",
    "country": "Somalia",
    "latitude": 9.03929728,
    "longitude": 47.48609329,
    "area_sqkm": 9104.52341648,
    "population": null,
    "livestock": null,
    "water_sources": [],
    "temperature_c": null
  },
  {
    "id": "so1301",
    "name": "Burco",
    "district": "Burco",
    "district_pcode": "SO1301",
    "region": "Togdheer",
    "region_pcode": "SO13",
    "country": "Somalia",
    "latitude": 9.19395477,
    "longitude": 45.73698304,
    "area_sqkm": 16071.53898665,
    "population": null,
    "livestock": null,
    "water_sources": [],
    "temperature_c": null
  },
  {
    "id": "so1302",
    "name": "Buuhoodle",
    "district": "Buuhoodle",
    "district_pcode": "SO1302",
    "region": "Togdheer",
    "region_pcode": "SO13",
    "country": "Somalia",
    "latitude": 8.33615001,
    "longitude": 46.6542156,
    "area_sqkm": 6786.13183791,
    "population": null,
    "livestock": null,
    "water_sources": [],
    "temperature_c": null
  },
  {
    "id": "so1303",
    "name": "Owdweyne",
    "district": "Owdweyne",
    "district_pcode": "SO1303",
    "region": "Togdheer",
    "region_pcode": "SO13",
    "country": "Somalia",
    "latitude": 9.25862042,
    "longitude": 44.98696769,
    "area_sqkm": 8353.80522836,
    "population": null,
    "livestock": null,
    "water_sources": [],
    "temperature_c": null
  },
  {
    "id": "so1304",
    "name": "Sheikh",
    "district": "Sheikh",
    "district_pcode": "SO1304",
    "region": "Togdheer",
    "region_pcode": "SO13",
    "country": "Somalia",
    "latitude": 9.98644012,
    "longitude": 45.37836002,
    "area_sqkm": 2963.34260607,
    "population": null,
    "livestock": null,
    "water_sources": [],
    "temperature_c": null
  },
  {
    "id": "so1202",
    "name": "Berbera",
    "district": "Berbera",
    "district_pcode": "SO1202",
    "region": "Woqooyi Galbeed",
    "region_pcode": "SO12",
    "country": "Somalia",
    "latitude": 10.40333605,
    "longitude": 45.34389878,
    "area_sqkm": 10259.50006712,
    "population": null,
    "livestock": null,
    "water_sources": [],
    "temperature_c": null
  },
  {
    "id": "so1203",
    "name": "Gebiley",
    "district": "Gebiley",
    "district_pcode": "SO1203",
    "region": "Woqooyi Galbeed",
    "region_pcode": "SO12",
    "country": "Somalia",
    "latitude": 9.82498164,
    "longitude": 43.64725633,
    "area_sqkm": 4278.01523224,
    "population": null,
    "livestock": null,
    "water_sources": [],
    "temperature_c": null
  },
  {
    "id": "so1201",
    "name": "Hargeysa",
    "district": "Hargeysa",
    "district_pcode": "SO1201",
    "region": "Woqooyi Galbeed",
    "region_pcode": "SO12",
    "country": "Somalia",
    "latitude": 9.54619998,
    "longitude": 44.22031006,
    "area_sqkm": 13709.98532099,
    "population": null,
    "livestock": null,
    "water_sources": [],
    "temperature_c": null
  }
]
